{
  "users": [
    {
      "id": 1,
      "email": "bruno@email.com",
      "name": "Bruno Costa",
      "password": 1234
    },
    {
      "id": 2,
      "email": "teste@email.com",
      "name": "Agilino José",
      "password": 1234
    }
  ],
  "stores": [
    {
      "name": "Loja 1",
      "city": "Iguatu",
      "zipcode": "63505150",
      "latitude": "-6.371073",
      "longitude": "-39.309947",
      "amount": "120000",
      "adress": {
        "zipcode": "63505-150",
        "street": "Rua Braz Papaleo",
        "neighborhood": "Esplanada II",
        "state": "CE",
        "city": "Iguatu"
      },
      "createdAt": "2023-06-29",
      "id": 2
    },
    {
      "name": "Loja da Maria",
      "city": "Icó",
      "zipcode": "63430000",
      "latitude": "-6.401327583697139",
      "longitude": "-38.85759301593488",
      "amount": "120000",
      "adress": {
        "zipcode": "63430-000",
        "street": "Av. Josefa Nogueira Monteiro",
        "neighborhood": "Centro",
        "state": "CE",
        "city": "Icó"
      },
      "createdAt": "2023-06-30",
      "id": 3
    },
    {
      "name": "Loja do João",
      "city": "Icó",
      "street": "R. Monsenhor Frota",
      "zipcode": "63430000",
      "latitude": "-6.400522780537659",
      "longitude": "-38.85764043114103",
      "amount": "96450",
      "adress": {
        "zipcode": "63430-000",
        "street": "R. Monsenhor Frota",
        "neighborhood": "Centro",
        "state": "CE",
        "city": "Icó"
      },
      "createdAt": "2023-06-30",
      "id": 4
    },
    {
      "name": "Loja 3",
      "city": "Iguatu",
      "street": "R. Raul Barbosa",
      "zipcode": "63504310",
      "latitude": "-6.369421692579241",
      "longitude": "-39.30794140082385",
      "amount": "86400",
      "adress": {
        "zipcode": "63504-310",
        "street": "R. Raul Barbosa",
        "neighborhood": "Vila Centenário",
        "state": "CE",
        "city": "Iguatu"
      },
      "createdAt": "2023-06-30",
      "id": 5
    },
    {
      "name": "Loja da antonia",
      "city": "Iguatu",
      "street": "Rua 15 de Novembro",
      "zipcode": "63500098",
      "latitude": "-6.366423757705898",
      "longitude": "-39.30084009188875",
      "amount": "84520",
      "adress": {
        "zipcode": "63500-098",
        "street": "Rua 15 de Novembro",
        "neighborhood": "Centro",
        "state": "CE",
        "city": "Iguatu"
      },
      "createdAt": "2023-06-30",
      "id": 6
    },
    {
      "name": "Loja 35",
      "city": "Iguatu",
      "street": "Rua Luiza Moreira",
      "zipcode": "63504375",
      "latitude": "-6.366414528773531",
      "longitude": "-39.301843001500735",
      "amount": "142000",
      "adress": {
        "zipcode": "63504-375",
        "street": "Rua Luiza Moreira",
        "neighborhood": "Veneza",
        "state": "CE",
        "city": "Iguatu"
      },
      "createdAt": "2023-06-30",
      "id": 7
    },
    {
      "name": "Loja 56",
      "city": "Iguatu",
      "street": "Rua. Profa Santinha",
      "zipcode": "63505115",
      "latitude": "-6.370806594902593",
      "longitude": "-39.31238811652439",
      "amount": "44000",
      "adress": {
        "zipcode": "63505-115",
        "street": "Rua. Profa Santinha",
        "neighborhood": "Esplanada II",
        "state": "CE",
        "city": "Iguatu"
      },
      "createdAt": "2023-06-30",
      "id": 8
    }
  ],
  "dashboardOverview": {
    "totalClients": {
      "amount": 12000,
      "variation": "up",
      "percentage": 10,
      "text": "Total de clientes"
    },
    "totalStores": {
      "amount": 106,
      "variation": "equal",
      "percentage": 10,
      "text": "Total de cidades"
    },
    "totalSubscriptions": {
      "amount": 13000,
      "variation": "up",
      "percentage": 10,
      "text": "Total de assinaturas"
    },
    "totalPartnerships": {
      "amount": 134,
      "variation": "down",
      "percentage": 10,
      "text": "Total de lojas parceiras"
    },
    "sales": [
      [
        0,
        22
      ],
      [
        1,
        25
      ],
      [
        2,
        35
      ],
      [
        3,
        72
      ],
      [
        4,
        86
      ],
      [
        5,
        90
      ],
      [
        6,
        76
      ],
      [
        7,
        82
      ],
      [
        8,
        84
      ],
      [
        9,
        92
      ],
      [
        10,
        94
      ],
      [
        11,
        98
      ],
      [
        12,
        102
      ],
      [
        13,
        103
      ],
      [
        14,
        96
      ],
      [
        15,
        110
      ],
      [
        16,
        115
      ],
      [
        17,
        119
      ],
      [
        18,
        125
      ],
      [
        19,
        132
      ],
      [
        20,
        136
      ],
      [
        21,
        140
      ],
      [
        22,
        142
      ],
      [
        23,
        135
      ],
      [
        24,
        138
      ],
      [
        25,
        144
      ],
      [
        26,
        148
      ],
      [
        27,
        152
      ],
      [
        28,
        158
      ],
      [
        29,
        162
      ],
      [
        30,
        168
      ]
    ]
  }
}